[
	{
		"name": "Etiam vestibulum massa rutrum magna. Cras convallis convallis",
		"street": "2154 Molestie. St.",
		"city": "Albisola Superiore",
		"country": "Lithuania",
		"location": "-12.7298, -31.52478",
		"youtubeId": "HhabgvIIXik"
	},
	{
		"name": "Praesent interdum ligula eu enim. Etiam imperdiet",
		"street": "831 Felis. Rd.",
		"city": "Santa Vittoria in Matenano",
		"country": "Mayotte",
		"location": "-4.90001, 79.24581",
		"youtubeId": "JKbiBNztErQ"
	},
	{
		"name": "ipsum porta elit,",
		"street": "9784 Luctus Rd.",
		"city": "Zerkegem",
		"country": "Palau",
		"location": "-0.96536, 2.897",
		"youtubeId": "-a6z8zl1fIo"
	},
	{
		"name": "molestie dapibus ligula. Aliquam erat volutpat. Nulla dignissim.",
		"street": "P.O. Box 956, 6688 Libero St.",
		"city": "Leke",
		"country": "CÃ´te D'Ivoire (Ivory Coast)",
		"location": "37.27946, 76.93902",
		"youtubeId": "JKbiBNztErQ"
	},
	{
		"name": "nunc sit amet metus. Aliquam erat volutpat. Nulla facilisis. Suspendisse",
		"street": "P.O. Box 854, 9487 Urna Ave",
		"city": "Sacramento",
		"country": "Saint Helena, Ascension and Tristan da Cunha",
		"location": "31.35421, 77.73053",
		"youtubeId": "-a6z8zl1fIo"
	},
	{
		"name": "id,",
		"street": "P.O. Box 636, 8780 Nunc Av.",
		"city": "Strausberg",
		"country": "Antarctica",
		"location": "-15.91054, -82.50829",
		"youtubeId": "etExG6wD0Vk"
	},
	{
		"name": "auctor, velit",
		"street": "9101 Consequat, St.",
		"city": "Rio Saliceto",
		"country": "Seychelles",
		"location": "-50.01917, 44.22039",
		"youtubeId": "HhabgvIIXik"
	},
	{
		"name": "neque. Sed",
		"street": "388-3981 Eu St.",
		"city": "Ãvreux",
		"country": "Bolivia",
		"location": "52.44085, -89.51572",
		"youtubeId": "QvWn4Awe8mc"
	},
	{
		"name": "non, hendrerit id, ante. Nunc mauris sapien,",
		"street": "Ap #657-731 Venenatis St.",
		"city": "Slijpe",
		"country": "Singapore",
		"location": "21.12223, 137.49894",
		"youtubeId": "QvWn4Awe8mc"
	},
	{
		"name": "eros turpis",
		"street": "730-3579 Nec Street",
		"city": "Filadelfia",
		"country": "Pakistan",
		"location": "-6.03468, 154.53717",
		"youtubeId": "etExG6wD0Vk"
	},
	{
		"name": "inceptos hymenaeos. Mauris ut quam vel sapien imperdiet",
		"street": "9178 Aliquam Street",
		"city": "MontluÃ§on",
		"country": "Lebanon",
		"location": "-69.99825, 100.06392",
		"youtubeId": "etExG6wD0Vk"
	},
	{
		"name": "lectus convallis est, vitae sodales nisi magna sed dui. Fusce",
		"street": "Ap #464-2978 Dictum Street",
		"city": "Augusta",
		"country": "Taiwan",
		"location": "-26.34776, -23.46418",
		"youtubeId": "fDOiE7-asBs"
	},
	{
		"name": "ullamcorper viverra. Maecenas",
		"street": "P.O. Box 969, 2848 Velit Avenue",
		"city": "Merrickville-Wolford",
		"country": "Hungary",
		"location": "76.21162, -161.89533",
		"youtubeId": "etExG6wD0Vk"
	},
	{
		"name": "vulputate dui, nec tempus mauris erat eget ipsum.",
		"street": "P.O. Box 312, 9304 Feugiat. Rd.",
		"city": "Greenock",
		"country": "South Africa",
		"location": "-37.28057, -36.26767",
		"youtubeId": "etExG6wD0Vk"
	},
	{
		"name": "Fusce fermentum fermentum arcu. Vestibulum ante ipsum primis in",
		"street": "Ap #630-819 Libero St.",
		"city": "Perth",
		"country": "Norfolk Island",
		"location": "46.72773, -61.20718",
		"youtubeId": "etExG6wD0Vk"
	},
	{
		"name": "Pellentesque tincidunt tempus risus. Donec egestas. Duis ac",
		"street": "P.O. Box 452, 949 Sollicitudin Road",
		"city": "Palermo",
		"country": "Dominica",
		"location": "22.5561, 127.53035",
		"youtubeId": "HhabgvIIXik"
	},
	{
		"name": "non, luctus sit amet, faucibus ut, nulla.",
		"street": "Ap #630-6297 Velit Rd.",
		"city": "Honolulu",
		"country": "Dominican Republic",
		"location": "-29.03076, 77.05768",
		"youtubeId": "etExG6wD0Vk"
	},
	{
		"name": "Ut tincidunt",
		"street": "3357 Aliquam Av.",
		"city": "RibeirÃ£o das Neves",
		"country": "Eritrea",
		"location": "-68.46881, 63.13887",
		"youtubeId": "JKbiBNztErQ"
	},
	{
		"name": "metus urna convallis",
		"street": "152-7070 Massa St.",
		"city": "NeudÃ¶rfl",
		"country": "South Sudan",
		"location": "40.64027, -83.84909",
		"youtubeId": "-a6z8zl1fIo"
	},
	{
		"name": "pede, nonummy ut, molestie in, tempus eu, ligula. Aenean",
		"street": "830-7866 Mauris Av.",
		"city": "Birori",
		"country": "Burundi",
		"location": "-2.44699, 61.98308",
		"youtubeId": "etExG6wD0Vk"
	},
	{
		"name": "nec, malesuada ut, sem. Nulla interdum. Curabitur dictum.",
		"street": "7700 Turpis Avenue",
		"city": "Bear",
		"country": "Viet Nam",
		"location": "-38.14935, 10.79162",
		"youtubeId": "etExG6wD0Vk"
	},
	{
		"name": "enim. Sed nulla ante, iaculis",
		"street": "678-8069 Vel Rd.",
		"city": "Laken",
		"country": "Fiji",
		"location": "50.32115, -108.54379",
		"youtubeId": "HhabgvIIXik"
	},
	{
		"name": "nibh. Phasellus nulla. Integer vulputate, risus",
		"street": "Ap #292-4651 Urna. Street",
		"city": "Nil-Saint-Vincent-Saint-Martin",
		"country": "Mexico",
		"location": "3.76728, 34.98924",
		"youtubeId": "JKbiBNztErQ"
	},
	{
		"name": "Proin",
		"street": "P.O. Box 659, 876 Malesuada Rd.",
		"city": "Colorado Springs",
		"country": "Moldova",
		"location": "-34.88236, 46.83253",
		"youtubeId": "etExG6wD0Vk"
	},
	{
		"name": "vitae risus. Duis a",
		"street": "Ap #269-1535 Gravida Av.",
		"city": "Burns Lake",
		"country": "Faroe Islands",
		"location": "-6.42209, -179.76697",
		"youtubeId": "QvWn4Awe8mc"
	},
	{
		"name": "enim mi tempor lorem, eget mollis",
		"street": "836-1136 Cras Rd.",
		"city": "Portland",
		"country": "Niger",
		"location": "83.94255, 129.38091",
		"youtubeId": "HhabgvIIXik"
	},
	{
		"name": "vestibulum. Mauris magna. Duis dignissim tempor arcu. Vestibulum ut eros",
		"street": "309-910 Nisi Street",
		"city": "Longueville",
		"country": "Argentina",
		"location": "-80.06318, -179.66385",
		"youtubeId": "QvWn4Awe8mc"
	},
	{
		"name": "Donec tempus, lorem",
		"street": "Ap #327-4039 Metus Av.",
		"city": "New Radnor",
		"country": "Armenia",
		"location": "-48.12217, -149.08666",
		"youtubeId": "etExG6wD0Vk"
	},
	{
		"name": "dui, nec tempus",
		"street": "197-3810 Eget St.",
		"city": "Grey County",
		"country": "Palestine, State of",
		"location": "48.77319, -4.16763",
		"youtubeId": "QvWn4Awe8mc"
	},
	{
		"name": "id, blandit at, nisi. Cum sociis",
		"street": "P.O. Box 889, 6155 Lobortis. Av.",
		"city": "Baie-Saint-Paul",
		"country": "Romania",
		"location": "72.54913, 108.57037",
		"youtubeId": "fDOiE7-asBs"
	},
	{
		"name": "semper auctor. Mauris vel turpis. Aliquam adipiscing lobortis",
		"street": "4280 Nullam Avenue",
		"city": "Rhyl",
		"country": "Austria",
		"location": "20.57738, 13.39708",
		"youtubeId": "QvWn4Awe8mc"
	},
	{
		"name": "mauris id sapien. Cras dolor dolor, tempus",
		"street": "P.O. Box 179, 9878 Tellus Ave",
		"city": "Poggio Berni",
		"country": "Armenia",
		"location": "-82.44236, 165.0686",
		"youtubeId": "QvWn4Awe8mc"
	},
	{
		"name": "Phasellus vitae mauris sit amet lorem semper auctor.",
		"street": "3853 Dictum Street",
		"city": "Vï¿½lklingen",
		"country": "Nepal",
		"location": "23.33154, 100.69485",
		"youtubeId": "-a6z8zl1fIo"
	}
]